{
  "type": "FeatureCollection",
  "features": [
    {
      "type": "Feature",
      "properties": {
        "No": 1,
        "調査年度": 2023,
        "探査機器": "ミラ",
        "調査区分": "状態調査",
        "Title": "ジャンカ・空洞調査",
        "調査対象": "鋼構造物",
        "調査場所": "長野県諏訪市",
        "photo": "R6_東伊豆.jpg"
      },
      "geometry": {
        "type": "Point",
        "coordinates": [
          138.11398,
          36.0391748
        ]
      }
    },
    {
      "type": "Feature",
      "properties": {
        "No": 2,
        "調査年度": 2023,
        "探査機器": "オーリス",
        "調査区分": "形状調査",
        "Title": "橋台形状調査",
        "調査対象": "コンクリート\n構造物",
        "調査場所": "静岡県下田市",
        "photo": "R6_藤沢.jpg"
      },
      "geometry": {
        "type": "Point",
        "coordinates": [
          138.945379,
          34.679545
        ]
      }
    },
    {
      "type": "Feature",
      "properties": {
        "No": 3,
        "調査年度": 2023,
        "探査機器": "オーリス",
        "調査区分": "形状調査",
        "Title": "H鋼根入れ調査",
        "調査対象": "鋼構造物",
        "調査場所": "東京都渋谷区",
        "photo": "R6_北九州若松.jpg"
      },
      "geometry": {
        "type": "Point",
        "coordinates": [
          139.6976754,
          35.663676
        ]
      }
    },
    {
      "type": "Feature",
      "properties": {
        "No": 4,
        "調査年度": 2023,
        "探査機器": "オーリス",
        "調査区分": "形状調査",
        "Title": "橋台の厚さ調査",
        "調査対象": "コンクリート\n構造物",
        "調査場所": "栃木県大田原市",
        "photo": "R6-3_大津市.jpg"
      },
      "geometry": {
        "type": "Point",
        "coordinates": [
          140.0154048,
          36.87103
        ]
      }
    },
    {
      "type": "Feature",
      "properties": {
        "No": 5,
        "調査年度": 2023,
        "探査機器": "オーリス",
        "調査区分": "形状調査",
        "Title": "橋脚の根入れ調査",
        "調査対象": "コンクリート\n構造物",
        "調査場所": "愛媛県西宇和郡伊方町",
        "photo": "R6-4_さいたま.jpg"
      },
      "geometry": {
        "type": "Point",
        "coordinates": [
          132.3560996,
          33.4896014
        ]
      }
    },
    {
      "type": "Feature",
      "properties": {
        "No": 7,
        "調査年度": 2023,
        "探査機器": "オーリス、ミラ",
        "調査区分": "形状調査",
        "Title": "スラブ厚調査",
        "調査対象": "コンクリート構造物",
        "調査場所": "埼玉県深谷市",
        "photo": "R6-5_MIRA_山梨.jpg"
      },
      "geometry": {
        "type": "Point",
        "coordinates": [
          139.2816997,
          36.1974016
        ]
      }
    },
    {
      "type": "Feature",
      "properties": {
        "No": 8,
        "調査年度": 2023,
        "探査機器": "オーリス",
        "調査区分": "形状調査",
        "Title": "跨線橋基礎杭長調査",
        "調査対象": "コンクリート\n構造物",
        "調査場所": "岩手県盛岡市",
        "photo": "R6-6_川越.jpg"
      },
      "geometry": {
        "type": "Point",
        "coordinates": [
          141.1545397,
          39.7021331
        ]
      }
    },
    {
      "type": "Feature",
      "properties": {
        "No": 10,
        "調査年度": 2023,
        "探査機器": "オーリス",
        "調査区分": "形状調査",
        "Title": "壁厚調査",
        "調査対象": "コンクリート\n構造物",
        "調査場所": "新潟県柏崎市",
        "photo": "R6-7_珠洲市.jpg"
      },
      "geometry": {
        "type": "Point",
        "coordinates": [
          138.5591406,
          37.3719095
        ]
      }
    },
    {
      "type": "Feature",
      "properties": {
        "No": 12,
        "調査年度": 2023,
        "探査機器": "オーリス",
        "調査区分": "状態調査",
        "Title": "橋脚（ケーソン）の健全性調査",
        "調査対象": "コンクリート構造物",
        "調査場所": "山梨県甲府市",
        "photo": "R6-8_大阪.jpg"
      },
      "geometry": {
        "type": "Point",
        "coordinates": [
          138.5710441,
          35.6652481
        ]
      }
    },
    {
      "type": "Feature",
      "properties": {
        "No": 13,
        "調査年度": 2023,
        "探査機器": "オーリス",
        "調査区分": "形状調査",
        "Title": "吊り橋の基礎根入れ調査",
        "調査対象": "コンクリート構造物",
        "調査場所": "福島県いわき市",
        "photo": "R6-9_竜ケ崎-1.jpg"
      },
      "geometry": {
        "type": "Point",
        "coordinates": [
          140.8876338,
          37.0504227
        ]
      }
    },
    {
      "type": "Feature",
      "properties": {
        "No": 15,
        "調査年度": 2023,
        "探査機器": "オーリス、ミラ",
        "調査区分": "形状調査",
        "Title": "橋台及びフーチング、地中梁の形状調査",
        "調査対象": "コンクリート構造物",
        "調査場所": "兵庫県神戸市",
        "photo": "R6-11_四日市.jpg"
      },
      "geometry": {
        "type": "Point",
        "coordinates": [
          135.1943764,
          34.6932379
        ]
      }
    },
    {
      "type": "Feature",
      "properties": {
        "No": 16,
        "調査年度": 2023,
        "探査機器": "オーリス",
        "調査区分": "状態調査",
        "Title": "フーチング及び基礎杭の状態調査",
        "調査対象": "コンクリート構造物",
        "調査場所": "石川県志賀町",
        "photo": "R6-16_オーリスMIA東伊豆2.jpg"
      },
      "geometry": {
        "type": "Point",
        "coordinates": [
          136.7577514,
          37.0664255
        ]
      }
    },
    {
      "type": "Feature",
      "properties": {
        "No": 17,
        "調査年度": 2023,
        "探査機器": "オーリス",
        "調査区分": "状態調査",
        "Title": "グラウンドアンカーの状態調査",
        "調査対象": "コンクリート構造物",
        "調査場所": "長野県大町市",
        "photo": "R6-23_郡山.jpg"
      },
      "geometry": {
        "type": "Point",
        "coordinates": [
          137.8508885,
          36.5029093
        ]
      }
    },
    {
      "type": "Feature",
      "properties": {
        "No": 18,
        "調査年度": 2023,
        "探査機器": "ミラ、\nパルサー",
        "調査区分": "状態調査",
        "Title": "トンネル覆工コンクリートひび割れ調査",
        "調査対象": "コンクリート構造物",
        "調査場所": "岐阜県岐阜市",
        "photo": "R6-24_前橋.jpg"
      },
      "geometry": {
        "type": "Point",
        "coordinates": [
          136.7627526,
          35.4230949
        ]
      }
    },
    {
      "type": "Feature",
      "properties": {
        "No": 19,
        "調査年度": 2023,
        "探査機器": "オーリス",
        "調査区分": "形状調査",
        "Title": "既設杭の杭長調査",
        "調査対象": "コンクリート構造物",
        "調査場所": "東京都渋谷区",
        "photo": "R6-22_金沢.jpg"
      },
      "geometry": {
        "type": "Point",
        "coordinates": [
          139.6976754,
          35.663676
        ]
      }
    },
    {
      "type": "Feature",
      "properties": {
        "No": 20,
        "調査年度": 2023,
        "探査機器": "オーリス、ミラ",
        "調査区分": "形状調査",
        "Title": "スノーシェッドの形状調査",
        "調査対象": "コンクリート構造物",
        "調査場所": "岐阜県白川村",
        "photo": "R6-14_群馬.jpg"
      },
      "geometry": {
        "type": "Point",
        "coordinates": [
          136.8986129,
          36.2710215
        ]
      }
    },
    {
      "type": "Feature",
      "properties": {
        "No": 21,
        "調査年度": 2023,
        "探査機器": "オーリス",
        "調査区分": "形状調査",
        "Title": "鋼矢板の杭長調査",
        "調査対象": "コンクリート構造物",
        "調査場所": "神奈川県相模原市",
        "photo": "R6-17_藤枝.jpg"
      },
      "geometry": {
        "type": "Point",
        "coordinates": [
          139.3731052,
          35.5714621
        ]
      }
    },
    {
      "type": "Feature",
      "properties": {
        "No": 23,
        "調査年度": 2023,
        "探査機器": "オーリス",
        "調査区分": "形状調査",
        "Title": "砂防堰堤形状調査（根入れ深さ）",
        "調査対象": "コンクリート構造物",
        "調査場所": "静岡県東伊豆町",
        "photo": "R6-9_竜ケ崎-2.jpg"
      },
      "geometry": {
        "type": "Point",
        "coordinates": [
          139.0412102,
          34.7728171
        ]
      }
    },
    {
      "type": "Feature",
      "properties": {
        "No": 26,
        "調査年度": 2023,
        "探査機器": "オーリス",
        "調査区分": "状態調査",
        "Title": "ケーソンの状態（損傷有無）調査",
        "調査対象": "コンクリート構造物",
        "調査場所": "福岡県北九州市若松区",
        "photo": "R6_北九州若松.jpg"
      },
      "geometry": {
        "type": "Point",
        "coordinates": [
          130.8112939,
          33.9054899
        ]
      }
    },
    {
      "type": "Feature",
      "properties": {
        "No": 29,
        "調査年度": 2023,
        "探査機器": "オーリス",
        "調査区分": "形状調査",
        "Title": "推定杭長調査",
        "調査対象": "コンクリート構造物",
        "調査場所": "滋賀県大津市",
        "photo": "R6-19_草加市.jpg"
      },
      "geometry": {
        "type": "Point",
        "coordinates": [
          135.8548122,
          35.0177852
        ]
      }
    },
    {
      "type": "Feature",
      "properties": {
        "No": 30,
        "調査年度": 2023,
        "探査機器": "オーリス",
        "調査区分": "形状調査",
        "Title": "推定杭長調査",
        "調査対象": "コンクリート構造物",
        "調査場所": "東京都足立区",
        "photo": "R6-20_兵庫県福崎.jpg"
      },
      "geometry": {
        "type": "Point",
        "coordinates": [
          139.8045163,
          35.7746029
        ]
      }
    },
    {
      "type": "Feature",
      "properties": {
        "No": 31,
        "調査年度": 2023,
        "探査機器": "オーリス",
        "調査区分": "形状調査",
        "Title": "場所打ち杭長",
        "調査対象": "コンクリート構造物",
        "調査場所": "東京都北区",
        "photo": "R6-22_金沢.jpg"
      },
      "geometry": {
        "type": "Point",
        "coordinates": [
          139.7338331,
          35.7528821
        ]
      }
    },
    {
      "type": "Feature",
      "properties": {
        "No": 32,
        "調査年度": 2023,
        "探査機器": "オーリス",
        "調査区分": "状態調査",
        "Title": "柱状改良部の確認",
        "調査対象": "コンクリート構造物",
        "調査場所": "神奈川県藤沢市",
        "photo": "R6-18_大森.jpg"
      },
      "geometry": {
        "type": "Point",
        "coordinates": [
          139.4909335,
          35.3388615
        ]
      }
    },
    {
      "type": "Feature",
      "properties": {
        "No": 33,
        "調査年度": 2024,
        "探査機器": "オーリス",
        "調査区分": "形状調査",
        "Title": "擁壁H鋼の根入れ長調査",
        "調査対象": "コンクリート構造物",
        "調査場所": "埼玉県さいたま市",
        "photo": "R6-13_川越鋼矢板.jpg"
      },
      "geometry": {
        "type": "Point",
        "coordinates": [
          139.6457957,
          35.8616402
        ]
      }
    },
    {
      "type": "Feature",
      "properties": {
        "No": 35,
        "調査年度": 2024,
        "探査機器": "オーリス",
        "調査区分": "形状調査",
        "Title": "歩道橋基礎杭長調査",
        "調査対象": "コンクリート構造物",
        "調査場所": "埼玉県川越市",
        "photo": "R6-8_大阪.jpg"
      },
      "geometry": {
        "type": "Point",
        "coordinates": [
          139.4856927,
          35.9251145
        ]
      }
    },
    {
      "type": "Feature",
      "properties": {
        "No": 36,
        "調査年度": 2024,
        "探査機器": "オーリス",
        "調査区分": "形状調査",
        "Title": "鋼矢板長調査",
        "調査対象": "鋼構造物",
        "調査場所": "東京都世田谷区",
        "photo": "R6-9_竜ケ崎-1.jpg"
      },
      "geometry": {
        "type": "Point",
        "coordinates": [
          139.6532284,
          35.6465668
        ]
      }
    },
    {
      "type": "Feature",
      "properties": {
        "No": 37,
        "調査年度": 2024,
        "探査機器": "オーリス",
        "調査区分": "形状調査",
        "Title": "既存PC杭長調査",
        "調査対象": "コンクリート構造物",
        "調査場所": "東京都江戸川区",
        "photo": "R6-11_四日市.jpg"
      },
      "geometry": {
        "type": "Point",
        "coordinates": [
          139.868677,
          35.7066318
        ]
      }
    },
    {
      "type": "Feature",
      "properties": {
        "No": 38,
        "調査年度": 2024,
        "探査機器": "オーリス",
        "調査区分": "状態調査",
        "Title": "橋梁の場所打ち杭の健全性評価",
        "調査対象": "コンクリート構造物",
        "調査場所": "石川県珠洲市",
        "photo": "R6-16_オーリスMIA東伊豆2.jpg"
      },
      "geometry": {
        "type": "Point",
        "coordinates": [
          137.2606015,
          37.4363793
        ]
      }
    },
    {
      "type": "Feature",
      "properties": {
        "No": 39,
        "調査年度": 2024,
        "探査機器": "オーリス",
        "調査区分": "形状調査",
        "Title": "PC杭長調査",
        "調査対象": "コンクリート構造物",
        "調査場所": "埼玉県上尾市",
        "photo": "R6-23_郡山.jpg"
      },
      "geometry": {
        "type": "Point",
        "coordinates": [
          139.5930504,
          35.9774082
        ]
      }
    },
    {
      "type": "Feature",
      "properties": {
        "No": 40,
        "調査年度": 2024,
        "探査機器": "オーリス、ミラ",
        "調査区分": "状態調査",
        "Title": "連系トラス鉄構の既設基礎の健全性調査",
        "調査対象": "コンクリート構造物",
        "調査場所": "大阪府高石氏",
        "photo": "R6-24_前橋.jpg"
      },
      "geometry": {
        "type": "Point",
        "coordinates": [
          135.4424339,
          34.5207361
        ]
      }
    },
    {
      "type": "Feature",
      "properties": {
        "No": 42,
        "調査年度": 2024,
        "探査機器": "ミラ",
        "調査区分": "状態調査",
        "Title": "排水樋管の主筋・配力筋の検知",
        "調査対象": "コンクリート構造物",
        "調査場所": "山形県米沢市",
        "photo": "R6-22_金沢.jpg"
      },
      "geometry": {
        "type": "Point",
        "coordinates": [
          140.1166276,
          37.9222426
        ]
      }
    },
    {
      "type": "Feature",
      "properties": {
        "No": 43,
        "調査年度": 2024,
        "探査機器": "オーリス、ミラ",
        "調査区分": "形状調査",
        "Title": "既設擁壁（新利根橋取付け擁壁）の形状調査",
        "調査対象": "コンクリート構造物",
        "調査場所": "茨城県竜ケ崎市",
        "photo": "R6-14_群馬.jpg"
      },
      "geometry": {
        "type": "Point",
        "coordinates": [
          140.181878,
          35.9113158
        ]
      }
    },
    {
      "type": "Feature",
      "properties": {
        "No": 46,
        "調査年度": 2024,
        "探査機器": "オーリス、ミラ",
        "調査区分": "形状調査",
        "Title": "擁壁の根入れ調査（オーリス）、壁厚調査（MIRA）",
        "調査対象": "コンクリート構造物",
        "調査場所": "福岡県北九州市門司区",
        "photo": "R6-17_藤枝.jpg"
      },
      "geometry": {
        "type": "Point",
        "coordinates": [
          130.9597976,
          33.9411645
        ]
      }
    },
    {
      "type": "Feature",
      "properties": {
        "No": 49,
        "調査年度": 2024,
        "探査機器": "オーリス",
        "調査区分": "形状調査",
        "Title": "桟橋の鋼管杭長調査",
        "調査対象": "鋼構造物",
        "調査場所": "三重県四日市市",
        "photo": "R6-9_竜ケ崎-2.jpg"
      },
      "geometry": {
        "type": "Point",
        "coordinates": [
          136.624845,
          34.9648428
        ]
      }
    },
    {
      "type": "Feature",
      "properties": {
        "No": 50,
        "調査年度": 2024,
        "探査機器": "ミラ",
        "調査区分": "状態調査",
        "Title": "新駅（北海道新幹線）の橋脚、橋脚フーチングの表面に発生するジャンカの奥行の把握",
        "調査対象": "コンクリート構造物",
        "調査場所": "北海道八雲町",
        "photo": "R6_北九州若松.jpg"
      },
      "geometry": {
        "type": "Point",
        "coordinates": [
          140.2649322,
          42.2558309
        ]
      }
    },
    {
      "type": "Feature",
      "properties": {
        "No": 51,
        "調査年度": 2024,
        "探査機器": "オーリス",
        "調査区分": "形状調査",
        "Title": "既設鋼矢板の根入れ長調査",
        "調査対象": "鋼構造物",
        "調査場所": "埼玉県川越市",
        "photo": "R6-19_草加市.jpg"
      },
      "geometry": {
        "type": "Point",
        "coordinates": [
          139.4856927,
          35.9251145
        ]
      }
    },
    {
      "type": "Feature",
      "properties": {
        "No": 54,
        "調査年度": 2024,
        "探査機器": "オーリス",
        "調査区分": "形状調査",
        "Title": "既存地滑り抑止鋼管杭の杭長調査",
        "調査対象": "鋼構造物",
        "調査場所": "群馬県上野村",
        "photo": "R6-20_兵庫県福崎.jpg"
      },
      "geometry": {
        "type": "Point",
        "coordinates": [
          138.7771654,
          36.0831883
        ]
      }
    },
    {
      "type": "Feature",
      "properties": {
        "No": 56,
        "調査年度": 2024,
        "探査機器": "オーリス",
        "調査区分": "形状調査",
        "Title": "既設擁壁の形状調査",
        "調査対象": "コンクリート構造物",
        "調査場所": "愛知県犬山市",
        "photo": "R6-22_金沢.jpg"
      },
      "geometry": {
        "type": "Point",
        "coordinates": [
          136.9845491,
          35.3609734
        ]
      }
    },
    {
      "type": "Feature",
      "properties": {
        "No": 57,
        "調査年度": 2024,
        "探査機器": "オーリス",
        "調査区分": "形状調査",
        "Title": "物基礎杭の杭長調査",
        "調査対象": "コンクリート構造物",
        "調査場所": "東京都墨田区",
        "photo": "R6-18_大森.jpg"
      },
      "geometry": {
        "type": "Point",
        "coordinates": [
          139.8017421,
          35.7104196
        ]
      }
    },
    {
      "type": "Feature",
      "properties": {
        "No": 58,
        "調査年度": 2024,
        "探査機器": "オーリス",
        "調査区分": "形状調査",
        "Title": "既存地下道の基礎杭の有無の調査",
        "調査対象": "コンクリート構造物",
        "調査場所": "岐阜県美濃市",
        "photo": "R6-13_川越鋼矢板.jpg"
      },
      "geometry": {
        "type": "Point",
        "coordinates": [
          136.9075182,
          35.5442619
        ]
      }
    },
    {
      "type": "Feature",
      "properties": {
        "No": 60,
        "調査年度": 2024,
        "探査機器": "オーリス、ミラ",
        "調査区分": "形状調査",
        "Title": "擁壁の形状調査（高さ、厚さ）",
        "調査対象": "コンクリート構造物",
        "調査場所": "静岡県東伊豆町",
        "photo": "R6-8_大阪.jpg"
      },
      "geometry": {
        "type": "Point",
        "coordinates": [
          139.0412102,
          34.7728171
        ]
      }
    },
    {
      "type": "Feature",
      "properties": {
        "No": 62,
        "調査年度": 2024,
        "探査機器": "オーリス",
        "調査区分": "形状調査",
        "Title": "既設橋台・橋脚の躯体高の調査",
        "調査対象": "コンクリート構造物",
        "調査場所": "静岡県藤枝市",
        "photo": "R6-9_竜ケ崎-1.jpg"
      },
      "geometry": {
        "type": "Point",
        "coordinates": [
          138.2577222,
          34.8674167
        ]
      }
    },
    {
      "type": "Feature",
      "properties": {
        "No": 64,
        "調査年度": 2024,
        "探査機器": "オーリス",
        "調査区分": "形状調査",
        "Title": "既存PC杭長調査",
        "調査対象": "コンクリート構造物",
        "調査場所": "東京都大田区",
        "photo": "R6-11_四日市.jpg"
      },
      "geometry": {
        "type": "Point",
        "coordinates": [
          139.715843,
          35.561206
        ]
      }
    },
    {
      "type": "Feature",
      "properties": {
        "No": 65,
        "調査年度": 2024,
        "探査機器": "オーリス",
        "調査区分": "形状調査",
        "Title": "矢板長調査",
        "調査対象": "鋼構造物",
        "調査場所": "埼玉県草加市",
        "photo": "R6-16_オーリスMIA東伊豆2.jpg"
      },
      "geometry": {
        "type": "Point",
        "coordinates": [
          139.8061784,
          35.8262233
        ]
      }
    },
    {
      "type": "Feature",
      "properties": {
        "No": 67,
        "調査年度": 2024,
        "探査機器": "オーリス",
        "調査区分": "形状調査",
        "Title": "パイルベント橋脚の長さ調査",
        "調査対象": "コンクリート構造物",
        "調査場所": "兵庫県福崎市",
        "photo": "R6-23_郡山.jpg"
      },
      "geometry": {
        "type": "Point",
        "coordinates": [
          135.1441862,
          34.663336
        ]
      }
    },
    {
      "type": "Feature",
      "properties": {
        "No": 68,
        "調査年度": 2024,
        "探査機器": "オーリス",
        "調査区分": "形状調査",
        "Title": "既存護岸鋼矢板長の調査",
        "調査対象": "鋼構造物",
        "調査場所": "神奈川県藤沢市",
        "photo": "R6-24_前橋.jpg"
      },
      "geometry": {
        "type": "Point",
        "coordinates": [
          139.4909335,
          35.3388615
        ]
      }
    },
    {
      "type": "Feature",
      "properties": {
        "No": 69,
        "調査年度": 2024,
        "探査機器": "オーリス",
        "調査区分": "形状調査",
        "Title": "護岸矢板長の調査",
        "調査対象": "鋼構造物",
        "調査場所": "石川県金沢市",
        "photo": "R6-22_金沢.jpg"
      },
      "geometry": {
        "type": "Point",
        "coordinates": [
          136.6568822,
          36.561627
        ]
      }
    },
    {
      "type": "Feature",
      "properties": {
        "No": 70,
        "調査年度": 2024,
        "探査機器": "オーリス",
        "調査区分": "形状調査",
        "Title": "橋脚コンクリート推定根入れ長調査",
        "調査対象": "コンクリート構造物",
        "調査場所": "福島県郡山市",
        "photo": "R6-14_群馬.jpg"
      },
      "geometry": {
        "type": "Point",
        "coordinates": [
          140.333381,
          37.404937
        ]
      }
    },
    {
      "type": "Feature",
      "properties": {
        "No": 73,
        "調査年度": 2024,
        "探査機器": "ミラ",
        "調査区分": "形状調査",
        "Title": "鉄筋位置の推定調査",
        "調査対象": "コンクリート構造物",
        "調査場所": "三重県四日市",
        "photo": "R6-17_藤枝.jpg"
      },
      "geometry": {
        "type": "Point",
        "coordinates": [
          136.6302658,
          34.9630151
        ]
      }
    },
    {
      "type": "Feature",
      "properties": {
        "No": 75,
        "調査年度": 2024,
        "探査機器": "ミラ",
        "調査区分": "状態調査",
        "Title": "ジャンカ周辺の奥行方向の広がりの把握",
        "調査対象": "コンクリート構造物",
        "調査場所": "群馬県前橋市",
        "photo": "R6-9_竜ケ崎-2.jpg"
      },
      "geometry": {
        "type": "Point",
        "coordinates": [
          139.0632826,
          36.3893418
        ]
      }
    }
  ]
}